City_ID,City,Country,Max Temp,Current Description,Lat,Lng,Hotel Name
0,Thompson,CA,71.76,scattered clouds,55.7435,-97.8558,Burntwood Hotel
2,Jamestown,US,88.02,scattered clouds,42.097,-79.2353,Hampton Inn & Suites Jamestown
8,Buala,SB,79.86,overcast clouds,-8.145,159.5921,Maringe Lagoon Lodge
15,Vaini,TO,73.56,scattered clouds,-21.2,-175.2,Keleti Beach Resort
16,Atuona,PF,77.81,clear sky,-9.8,-139.0333,Villa Enata
18,Rikitea,PF,73.36,clear sky,-23.1203,-134.9692,People ThankYou
20,Nueva Guinea,NI,78.51,overcast clouds,11.6876,-84.4562,Posadita La Reyna
24,Kita,ML,74.71,light rain,13.0349,-9.4895,Hôtel Chat Rouge
25,Bambous Virieux,MU,71.85,light rain,-20.3428,57.7575,Casa Tia Villa
27,Kapaa,US,82.38,few clouds,22.0752,-159.319,Sheraton Kauai Coconut Beach Resort
28,Narasannapeta,IN,82.26,overcast clouds,18.4167,84.05,AVK events and catering
30,Laramie,US,86.09,clear sky,41.3114,-105.5911,Fairfield Inn & Suites by Marriott Laramie
31,Caravelas,BR,73.4,clear sky,-17.7125,-39.2481,Pousada dos Navegantes
36,Saint Anthony,US,89.15,clear sky,45.0205,-93.218,"Holiday Inn Express Roseville-St. Paul, an IHG Hotel"
37,Carnarvon,AU,70.56,clear sky,-24.8667,113.6333,Hospitality Carnarvon
38,Puerto Ayora,EC,76.96,overcast clouds,-0.7393,-90.3518,Finch Bay Galapagos Hotel
39,Beyneu,KZ,84.16,overcast clouds,45.3167,55.2,NUR
41,Torbay,CA,69.28,broken clouds,47.6666,-52.7314,Gallows Cove
42,Ixtapa,MX,89.22,overcast clouds,20.7,-105.2,hotel la terminal
47,Komsomolskiy,UZ,81.32,clear sky,40.4272,71.7189,Ikathouse
51,Kavieng,PG,81.14,light rain,-2.5744,150.7967,Nusa Island Retreat
52,Butaritari,KI,81.28,scattered clouds,3.0707,172.7902,Isles Sunset Lodge
54,San Cristobal,VE,77.18,broken clouds,7.7669,-72.225,Pirineos
55,Warrington,GB,65.32,scattered clouds,53.3925,-2.5802,Villaggio Hotel
57,Banda Aceh,ID,80.37,overcast clouds,5.5577,95.3222,OYO 884 Rumoh PMI Hotel
58,Garowe,SO,79.45,overcast clouds,8.4054,48.4845,Curubo Hotel
60,Padang,ID,76.06,scattered clouds,-0.9492,100.3543,Mercure Padang
64,Lorengau,PG,79.2,overcast clouds,-2.0226,147.2712,Lorengau Harbourside Hotel
66,Avarua,CK,73.45,scattered clouds,-21.2078,-159.775,Paradise Inn
67,Georgetown,MY,81.9,few clouds,5.4112,100.3354,Cititel Penang
68,Hambantota,LK,78.57,overcast clouds,6.1241,81.1185,Bungalow 63
70,Palu,ID,74.77,clear sky,-0.8917,119.8707,Hotel Santika Palu
71,Vila Do Maio,CV,79.59,few clouds,15.1333,-23.2167,Hotel Marilu
73,Boyolangu,ID,72.88,overcast clouds,-8.1181,111.8935,Yos ega cv
74,Doka,SD,68.88,overcast clouds,13.5167,35.7667,Um Rakuba Refugee Camp
77,Boa Vista,BR,85.98,broken clouds,2.8197,-60.6733,Aipana Plaza Hotel
78,Trincomalee,LK,79.77,scattered clouds,8.5711,81.2335,Welcombe Hotel
80,Rio Grande,BR,71.71,clear sky,-32.035,-52.0986,Hotel Atlântico Rio Grande
81,Senador Pompeu,BR,87.15,broken clouds,-5.5881,-39.3717,Pousada Ki-Delicia
82,Souillac,MU,71.98,light rain,-20.5167,57.5167,Shanti Maurice Resort & Spa
85,Sao Filipe,CV,76.53,broken clouds,14.8961,-24.4956,Hotel Xaguate
87,Hithadhoo,MV,80.64,overcast clouds,-0.6,73.0833,Scoop Guest House
88,Kaduna,NG,71.37,moderate rain,10.5222,7.4383,HAMDALA HOTEL
92,Pelotas,BR,71.62,clear sky,-31.7719,-52.3425,Hotéis Jacques Georges Tower
93,Sombrio,BR,66.18,clear sky,-29.1139,-49.6167,Hotel e Restaurante Sao Cristovao
95,Joniskis,LT,65.32,few clouds,56.2403,23.6153,Audruvis
98,Khao Yoi,TH,75.9,moderate rain,13.2403,99.8243,เปิ้ล ทำเบาะ
104,Ribeira Grande,PT,75.6,few clouds,38.5167,-28.7,Quinta da Meia Eira
105,Olinda,BR,76.73,broken clouds,-8.0089,-34.8553,Flat Quatro Rodas Olinda
106,Zhezkazgan,KZ,83.95,overcast clouds,47.8043,67.7144,Hotel Zumrat
108,Sao Joao Da Barra,BR,77.09,few clouds,-21.6403,-41.0511,Pousada Porto De Canoas
109,Rafaela,AR,72.0,broken clouds,-31.2503,-61.4867,Parra Hotel & Suites
111,Vao,NC,73.89,overcast clouds,-22.6667,167.4833,Hotel Kou-Bugny
112,Sola,VU,80.71,broken clouds,-13.8833,167.55,Leumerus Bungalows
113,Ust-Donetskiy,RU,67.84,clear sky,47.6419,40.8718,Levada
114,Margherita,IN,75.25,overcast clouds,27.2833,95.6833,Dehing Guest House
115,Damghan,IR,80.06,clear sky,36.1683,54.348,خوابگاه اساتيد دانشگاه دامغان
117,Lagoa,PT,72.45,clear sky,39.05,-27.9833,Casa Das Faias
122,Arraial Do Cabo,BR,75.16,broken clouds,-22.9661,-42.0278,Pousada Porto Praia
123,Mamallapuram,IN,84.06,broken clouds,12.6264,80.1722,Radisson Blu Resort Temple Bay Mamallapuram
124,Buarcos,PT,70.14,clear sky,40.166,-8.8768,Hotel Sweet Atlantic SPA
125,Castro,BR,67.8,clear sky,-24.7911,-50.0119,CHACARA BAILLY
126,Bengkulu,ID,76.05,broken clouds,-3.8004,102.2655,Grage Hotel Bengkulu
129,Mutsu,JP,68.0,overcast clouds,41.2894,141.2169,Mutsu Park Hotel
130,Sorong,ID,77.54,overcast clouds,-0.8833,131.25,Waigo Splash Hotel
131,Kaoma,ZM,66.38,overcast clouds,-14.7833,24.8,KAOMA AIRPORT
136,Fortuna,US,68.94,scattered clouds,40.5982,-124.1573,Super 8 by Wyndham Fortuna
139,Isiro,CD,66.36,scattered clouds,2.7739,27.616,Guest House Hewa Bora
142,Madang,PG,75.4,overcast clouds,-5.2246,145.7966,Comfort Inn Hotel
143,San Juan,AR,69.76,clear sky,-31.5375,-68.5364,Hotel Provincial
145,Yilan,TW,84.02,overcast clouds,24.757,121.753,Dar Chen Hotel
148,Faanui,PF,77.76,clear sky,-16.4833,-151.75,Bora-Bora Pearl Beach Resort & Spa
150,Marawi,PH,69.89,scattered clouds,7.9986,124.2928,Derogongan Residence
151,Vila Franca Do Campo,PT,70.21,broken clouds,37.7167,-25.4333,Pestana Bahia Praia
154,Saint-Philippe,RE,65.79,scattered clouds,-21.3585,55.7679,Le four à pain
159,Moron,AR,67.69,scattered clouds,-34.6534,-58.6198,Hotel Morón
162,Tebingtinggi,ID,74.5,overcast clouds,3.3285,99.1625,Hotel Malibou tebing tinggi
164,Santa Maria,BR,65.5,clear sky,-29.6842,-53.8069,Hotel Morotin
165,Guerrero Negro,MX,83.55,few clouds,27.9769,-114.0611,"Casa Laguna, Bed & Breakfast"
166,Dingle,PH,76.75,moderate rain,10.9995,122.6711,SEGAYA PROPERTY
167,Isangel,VU,76.17,overcast clouds,-19.55,169.2667,Tanna Lodge
169,Waingapu,ID,70.45,few clouds,-9.6567,120.2641,Pondok Wisata Elim
171,Alofi,NU,73.29,clear sky,-19.0595,-169.9187,Taloa Heights
172,Pitimbu,BR,77.59,broken clouds,-7.4706,-34.8086,Reserva do Abiaí
173,High Level,CA,73.51,scattered clouds,58.5169,-117.136,Days Inn by Wyndham High Level
175,Victoria,HK,86.38,few clouds,22.2855,114.1577,Mini Central
177,Faya,SA,68.11,overcast clouds,18.3851,42.4509,املاك خالد الشعشوع
179,Kismayo,SO,75.15,light rain,-0.3582,42.5454,Agan-Hotel
180,Awjilah,LY,81.25,clear sky,29.1081,21.2869,المنزل
181,Cairns,AU,69.75,overcast clouds,-16.9167,145.7667,Mantra Trilogy Cairns
184,Esmeraldas,BR,77.11,clear sky,-19.7625,-44.3139,Forasteiro Pousada
187,Bergen,NO,65.08,moderate rain,60.392,5.328,Clarion Collection Hotel Havnekontoret
188,Kailua,US,81.14,light rain,21.4022,-157.7394,Sheffield House Bed & Breakfast
189,Kankakee,US,87.3,clear sky,41.15,-87.8667,Fairfield Inn by Marriott Kankakee Bourbonnais
190,Baruun-Urt,MN,66.22,scattered clouds,46.6806,113.2792,Ахмадын амралт сувилал
191,Salalah,OM,76.57,broken clouds,17.0151,54.0924,"HAMDAN PLAZA HOTEL SALALAH, an HTG Hotel"
193,Kahului,US,80.96,light rain,20.8947,-156.47,Maui Seaside Hotel
194,Mabaruma,GY,78.57,overcast clouds,8.2,-59.7833,Monty Brooms Guest House
195,Inhambane,MZ,66.18,clear sky,-23.865,35.3833,Oceano
196,Katobu,ID,74.35,few clouds,-4.9408,122.5276,La Ode Husein
197,Great Yarmouth,GB,72.01,moderate rain,52.6083,1.7305,Comfort Hotel Great Yarmouth
198,Nikolskoye,RU,69.87,overcast clouds,59.7035,30.7861,Tourist House - Sablino
199,Port-Gentil,GA,75.16,scattered clouds,-0.7193,8.7815,Fengshui Residence
200,Gasa,PS,75.88,clear sky,31.5,34.4667,رابطة الفنانين الفلسطينيين
201,Jega,NG,84.63,overcast clouds,12.2175,4.3792,ALH. Nasiru Ibrahim
208,Ouesso,CG,72.68,light rain,1.6136,16.0517,ABENIE Hotel
210,Ponta Do Sol,PT,75.7,clear sky,32.6667,-17.1,Hotel do Campo
211,Lata,PT,66.29,clear sky,40.1629,-8.3327,Casa Maquia
212,Hilo,US,81.28,light rain,19.7297,-155.09,Hilo Hawaiian Hotel
214,Magrath,CA,80.74,clear sky,49.4167,-112.8686,Lindenbaum Bed & Breakfast
215,Tabou,CI,75.33,overcast clouds,4.423,-7.3528,hotêl doufoulougou
217,Muros,ES,71.1,clear sky,42.7762,-9.0603,Apartment Av. Castelao
218,Trabzon,TR,68.09,broken clouds,40.9167,39.8333,SANDALS HOTEL
220,Tirano,IT,78.4,clear sky,46.2154,10.1679,Hotel Corona Tirano
223,Sechura,PE,75.76,scattered clouds,-5.5569,-80.8222,Hospedaje Costa Bella
224,Jadu,LY,78.76,clear sky,31.953,12.0261,امياس للصرافة
229,Vila Velha,BR,76.95,clear sky,-20.3297,-40.2925,Hotel Vitória Palace
230,Djambala,CG,71.85,light rain,-2.5447,14.7533,Hotel Ravin D'or
234,Iquitos,PE,86.04,broken clouds,-3.7481,-73.2472,Cortez Malaga Techy Caroly
236,Lasa,IT,68.77,broken clouds,46.6166,10.7002,Pension Feldgärtenhof
237,Velasco Ibarra,EC,85.06,broken clouds,-1.05,-79.6167,Wilson Mendoza
238,Lamu,KE,74.77,clear sky,-2.2717,40.902,Lamu House
240,Itarema,BR,80.17,overcast clouds,-2.9248,-39.9167,"Sea Lounge! Bar, Club & Restaurant"
241,Hobyo,SO,75.67,few clouds,5.3505,48.5268,Iftin hotel hobyo
245,Meulaboh,ID,75.67,overcast clouds,4.1363,96.1285,Kost Pria
248,Sumbe,AO,67.8,scattered clouds,-11.2061,13.8437,Hotel Ritz Sumbe
252,Maun,BW,69.76,clear sky,-19.9833,23.4167,Enviro Villa
253,Sibolga,ID,75.49,broken clouds,1.7427,98.7792,Hotel Syariah CN Darussalam
254,Paranapanema,BR,74.53,clear sky,-23.3886,-48.7228,Hotel Beira Rio
257,Sabang,ID,82.74,overcast clouds,5.8933,95.3214,Hotel Citra
258,The Valley,AI,86.83,scattered clouds,18.217,-63.0578,CeBlue Villas & Beach Resort
259,Norman Wells,CA,71.64,broken clouds,65.282,-126.8329,Heritage Hotel
260,Bajil,YE,85.98,overcast clouds,15.0584,43.2851,فندق حضرموت
261,Honiara,SB,76.19,scattered clouds,-9.4333,159.95,Heritage Park Hotel
262,Tazmalt,DZ,83.3,clear sky,36.3868,4.3989,Hôtel Numédia
263,Norsup,VU,79.7,scattered clouds,-16.0667,167.3833,Nabelchel Bungalows
264,Katsuura,JP,76.8,broken clouds,35.1333,140.3,Katsuura Hotel Mikazuki
267,Lagoa Vermelha,BR,65.89,clear sky,-28.2086,-51.5258,Hotel Kaianã
268,Dhidhdhoo,MV,80.98,overcast clouds,6.8833,73.1,Dhidhoo beach
269,Auki,SB,75.9,overcast clouds,-8.7676,160.7034,Auki Motel
270,Kloulklubed,PW,82.08,broken clouds,7.0419,134.2556,Storyboard Beach Resort
272,Cody,US,89.91,clear sky,44.5263,-109.0565,"Holiday Inn Cody-at Buffalo Bill Village, an IHG Hotel"
276,Asfi,MA,79.38,overcast clouds,32.2994,-9.2372,Hôtel Abda
277,Nauta,PE,76.28,overcast clouds,-4.5061,-73.5757,Amazon Exploring Expedition - Eretzen Tá Lodge
278,Tura,IN,74.73,light rain,25.5198,90.2201,Hotel RIKMAN Continental
282,Teguise,ES,73.62,clear sky,29.0605,-13.564,B&B La Casona de Nazaret
283,Huarmey,PE,67.68,clear sky,-10.0681,-78.1522,Hotel Miramar
284,Misratah,LY,81.05,clear sky,32.3754,15.0925,Almasa Hotel
286,Mana,GF,81.88,clear sky,5.6592,-53.7767,LE SAMANA
288,Inuvik,CA,65.16,broken clouds,68.3499,-133.7218,Nova Inn Inuvik
290,Magole,TZ,65.7,scattered clouds,-6.3667,37.3667,Juma lubelwa
291,Gat,IL,80.82,clear sky,31.61,34.7642,OlusHome
295,Broska,UA,75.54,overcast clouds,45.3733,28.783,Art-Hotelʹ
297,Balkhash,KZ,75.67,clear sky,46.844,74.9804,Family
298,Minot,US,79.81,clear sky,48.2325,-101.2963,Noble Inn
299,Touros,BR,77.16,overcast clouds,-5.1989,-35.4608,INN NEW HORIZON
300,Tucupita,VE,81.12,overcast clouds,9.0622,-62.051,Hotel Tucupita Su​ite C.A.
301,Daryapur,IN,77.58,overcast clouds,20.9333,77.3333,Adv Aditya Deshmukh
302,Beipiao,CN,68.5,overcast clouds,41.7919,120.7792,Beipiao Hotel
303,Bemidji,US,83.05,clear sky,47.4736,-94.8803,Hampton Inn & Suites Bemidji
305,Jalu,LY,81.7,clear sky,29.0331,21.5482,صاحبة الفخامة
307,Beverungen,DE,87.42,broken clouds,51.6667,9.3667,AKZENT Hotel Stadt Bremen
309,Minggang,CN,70.0,broken clouds,32.4586,114.0486,Yindu Hotel
310,Mbuji-Mayi,CD,81.81,broken clouds,-6.15,23.6,HOTEL METROPOLE DU KASAI
312,Atambua,ID,69.96,overcast clouds,-9.1061,124.8925,Kost Alfa Flat
313,Diego De Almagro,CL,70.11,moderate rain,-26.3667,-70.05,hotel luna del desierto
314,Muli,MV,79.34,overcast clouds,2.9167,73.5667,Medhufushi Island Resort
316,Kamaishi,JP,68.77,broken clouds,39.2667,141.8833,Hotel Route Inn Kamaishi
321,Cockburn Town,TC,82.29,clear sky,21.4612,-71.1419,Osprey Beach Hotel
322,Ilhabela,BR,69.33,light rain,-23.7781,-45.3581,Ilha Flat Hotel
323,Port Blair,IN,78.6,heavy intensity rain,11.6667,92.75,"Welcomhotel By ITC Hotels, Bay Island, Port Blair"
324,Luanda,AO,68.36,clear sky,-8.8368,13.2343,EPIC SANA Luanda
326,Tautira,PF,76.05,light rain,-17.7333,-149.15,Pension Oaoa
327,Santarem,BR,86.47,overcast clouds,-2.4431,-54.7083,Hotel Imperador
328,Tierralta,CO,85.86,overcast clouds,8.1736,-76.0592,Hotel La Marqueza
332,Oussouye,SN,77.65,light rain,12.485,-16.5469,Auberge du Routard
333,Asau,RO,72.52,few clouds,46.4333,26.4,Casa Mika Ciobanus
338,Denpasar,ID,76.71,scattered clouds,-8.65,115.2167,OYO 3156 Hotel Warta 2
341,Nanchang,CN,83.16,moderate rain,28.6833,115.8833,Ruidu Hotel
344,Kajansi,UG,70.48,few clouds,0.2081,32.5222,"Gorilla's Nest Entebbe, Gorillaz Nest"
345,Flin Flon,CA,66.04,thunderstorm,54.7682,-101.865,Victoria Inn Flin Flon
346,Margate,GB,72.88,scattered clouds,51.3813,1.3862,Premier Inn Margate hotel
347,Hienghene,NC,72.99,light rain,-20.6833,164.9333,Ka Waboana Lodge
349,Oriximina,BR,85.75,overcast clouds,-1.7656,-55.8661,Pousada Tia Amélia
350,Riviere-Au-Renard,CA,68.02,overcast clouds,48.9957,-64.3971,Auberge Le Caribou
352,Neuquen,AR,65.46,few clouds,-38.9516,-68.0591,Hotel del Comahue
354,Loralai,PK,80.6,clear sky,30.3705,68.598,Saddam Hotel & Resturant
355,Nova Olinda Do Norte,BR,89.46,overcast clouds,-3.8881,-59.0942,Casa Juazeiro
356,Urucara,BR,82.67,broken clouds,-2.5364,-57.76,Pousada Maria Bonita
357,Hasaki,JP,75.6,overcast clouds,35.7333,140.8333,Inubosaki Kanko Hotel
358,Pocri,PA,82.69,overcast clouds,8.2667,-80.55,Residencial Aguadulce
361,Aksu,CN,76.62,clear sky,41.1231,80.2644,Pudong Holiday Hotel
362,Porto Novo,BJ,74.79,overcast clouds,6.4965,2.6036,Tour Eiffel Hotel Benin
364,Gigmoto,PH,81.48,overcast clouds,13.7796,124.39,Cj's Travellers Inn
365,Harindanga,IN,83.3,overcast clouds,22.0383,88.3214,Hasanur Builders
369,Eydhafushi,MV,80.76,overcast clouds,5.1033,73.0708,Soneva Fushi
371,Buenavista,PH,75.52,overcast clouds,8.9769,125.4089,Room For Rent
373,Tulagi,SB,81.21,broken clouds,-9.0996,160.1476,Raiders Hotel & Dive
375,Mahebourg,MU,70.25,light rain,-20.4081,57.7,Shandrani Beachcomber Resort & Spa
377,Kontagora,NG,75.69,overcast clouds,10.3999,5.4695,Queens Guest Inn
378,Dawson Creek,CA,73.26,few clouds,55.7666,-120.2362,Peace Villa Motel
379,Howard Springs,AU,66.11,overcast clouds,-12.497,131.047,buffalo beach hostel
382,Iwanai,JP,65.28,broken clouds,42.9744,140.5089,いわない高原ホテル
383,Bosaso,SO,88.18,overcast clouds,11.2842,49.1816,Red Sea Hotel
384,Damaturu,NG,74.71,overcast clouds,11.747,11.9608,"Hayas Guest Inn, Central Roundabout, Gujba Road"
387,Russkiy,RU,67.86,overcast clouds,43.0147,131.8642,"Baza Otdykha ""Renessans"""
388,Lethem,GY,85.14,overcast clouds,3.3803,-59.7968,Savannah Inn
390,Nowy Dwor Gdanski,PL,70.68,clear sky,54.2131,19.1177,Ranczo Ryki
391,Balabac,PH,81.12,broken clouds,7.9868,117.0645,Batalla’s Lodging House
393,San Quintin,MX,76.64,broken clouds,30.4833,-115.95,Don Eddie's Sport Fishing Center
397,Riedlingen,DE,67.93,moderate rain,48.1545,9.4756,Danuvius Ferienwohnung
399,Aktau,KZ,79.38,overcast clouds,43.65,51.2,Silk Way Hotel
400,Coruripe,BR,74.62,broken clouds,-10.1256,-36.1756,Pousada e Hotel Litoral Sul
403,Randazzo,IT,73.83,clear sky,37.8774,14.9501,Ai Tre Parchi Bed And Bike
405,Marsa Matruh,EG,77.41,clear sky,31.3525,27.2453,Beau Site
407,Comacchio,IT,84.2,clear sky,44.6975,12.1858,Locanda la Comacina
409,Bitung,ID,74.25,broken clouds,1.4451,125.1824,K2 Lembeh
411,Kishi,NG,74.93,overcast clouds,9.0833,3.85,New NCCF KISI
412,Shieli,KZ,88.54,clear sky,44.1667,66.75,Gostinitsa Aybek Shieli
413,Mbanza-Ngungu,CD,67.3,clear sky,-5.25,14.8667,Hotel Full Business
415,Ambon,ID,77.23,scattered clouds,-3.6954,128.1814,Swiss-Belhotel Ambon
417,Anaconda,US,85.19,clear sky,46.1285,-112.9423,Trade Wind Motel
420,Geraldton,AU,66.61,broken clouds,-28.7667,114.6,Broadwater Mariner Resort
428,Kavaratti,IN,81.16,light rain,10.5669,72.642,Green leaf
429,Pontianak,ID,78.78,overcast clouds,-0.0333,109.3333,Aston Pontianak Hotel & Convention Center
430,Los Llanos De Aridane,ES,69.55,few clouds,28.6585,-17.9182,Valle Aridane
431,Vangaindrano,MG,65.91,light rain,-23.35,47.6,Hotel Fanilo
433,Stancuta,RO,75.02,broken clouds,44.9,27.8333,Fostul han devenit depozit
434,Campos,BR,75.25,clear sky,-21.75,-41.3,Palace Hotel - Campos dos Goytacazes
437,Tuntum,BR,83.12,few clouds,-5.2581,-44.6489,Casa da Dona Maria Lúcia
438,Kutum,SD,75.2,light rain,14.2,24.6667,Dibbo areaمنطقة دبو
439,Portland,US,89.53,clear sky,45.5234,-122.6762,Embassy Suites by Hilton Portland Downtown
440,Nalchiti,BD,80.83,overcast clouds,22.6333,90.2833,Al Madina plazza
441,Dhuburi,IN,80.35,moderate rain,26.0333,89.9667,"Hotel Samrat, Dhubri"
443,Gwadar,PK,82.65,overcast clouds,25.1216,62.3254,Sadaf Resort
446,Imbituba,BR,66.09,clear sky,-28.24,-48.6703,Praia Hotel Imbituba
447,Miaoli,TW,83.95,broken clouds,24.5643,120.8237,Hsin Hsin Hotel
448,Acatzingo,MX,81.77,overcast clouds,18.9833,-97.7833,Acatzingo cultura y tradición
449,Namatanai,PG,77.85,overcast clouds,-3.6667,152.4333,Seagulls Inn Namatani
450,Kyaikto,MM,78.69,overcast clouds,17.3,97.0167,နီလာ တည်းခိုခန်း
452,Espinal,CO,87.39,overcast clouds,4.1492,-74.8843,Hotel Pacanaima Espinal
454,Camalu,MX,78.08,broken clouds,30.85,-116.0667,La Cueva del Pirata
455,Acapulco,MX,87.62,broken clouds,16.8634,-99.8901,HS Hotsson Smart Acapulco
456,Amuntai,ID,72.82,clear sky,-2.4177,115.2494,Hotel Balqis
458,Karratha,AU,66.43,clear sky,-20.7377,116.8463,ibis Styles Karratha
461,Vaitape,PF,77.74,clear sky,-16.5167,-151.75,Conrad Bora Bora Nui
462,Makakilo City,US,80.69,scattered clouds,21.3469,-158.0858,Marriott's Ko Olina Beach Club
463,Milkovo,RU,70.07,clear sky,54.7167,158.6167,"Hotel ""Geologist"""
465,Nishihara,JP,83.48,overcast clouds,26.1842,127.7558,Minshuku Agaihama
472,Indramayu,ID,76.86,clear sky,-6.3264,108.32,Grand Trisula Hotel
474,Tecoanapa,MX,86.63,overcast clouds,16.5167,-98.75,Hotel Manglares
475,Dakoro,NE,82.83,broken clouds,14.5106,6.765,Shagon mai liverpool
477,Barranca,PE,65.37,few clouds,-10.75,-77.7667,El Olivar Hospedaje
478,Jining,CN,69.69,broken clouds,35.405,116.5814,Yunhe Star Hotel
479,Sabirabad,AZ,77.63,clear sky,40.0095,48.4752,Mugan Park Hotel
480,Cap Malheureux,MU,66.47,light rain,-19.9842,57.6142,Pereybere Hotel & Spa
482,Teahupoo,PF,75.16,light rain,-17.8333,-149.2667,Vanira Lodge
483,Lhokseumawe,ID,76.41,overcast clouds,5.1801,97.1507,OYO 3278 Penginapan Alfajri
484,Dumbea,NC,74.98,overcast clouds,-22.15,166.45,Le gîte du Tour du Monde
490,Dingli,MT,79.81,clear sky,35.8614,14.3822,The Xara Palace Relais & Chateaux
491,Kulhudhuffushi,MV,80.08,moderate rain,6.6221,73.07,Haajy Guest House 1
492,Grand Gaube,MU,68.4,light rain,-20.0064,57.6608,Veranda Paul et Virginie Hotel & Spa
495,Japura,ID,73.29,overcast clouds,-0.3167,102.35,Rumah mbah Jamah
496,Karwar,IN,77.65,broken clouds,14.8,74.1333,Netalco Connects
498,Akyab,MM,81.57,overcast clouds,20.15,92.9,Hotel Memory
501,Williams Lake,CA,82.06,few clouds,52.1415,-122.1445,Stampeder Motel
503,Kirakira,SB,80.89,broken clouds,-10.4544,161.9205,SanBiz Lodge
504,Alexandria,EG,77.54,clear sky,31.2156,29.9553,Royal Crown Hotel
505,Bani Walid,LY,76.77,clear sky,31.7566,13.9942,منزل مفتاح محمد الزلبي
506,Camacha,PT,69.22,broken clouds,33.0833,-16.3333,Hotel Porto Santo & Spa
509,Atasu,KZ,78.71,overcast clouds,48.6814,71.6433,Dostyk
510,Salinopolis,BR,78.87,scattered clouds,-0.6136,-47.3561,Salinas Park Resort Maçarico AP101
511,Belmonte,BR,72.5,clear sky,-15.8631,-38.8828,Pousada Monte Carmelo O Pão
513,Urumqi,CN,68.95,clear sky,43.801,87.6005,Hua Ling Grand Hotel Urumqi
517,Paka,MY,78.73,overcast clouds,4.6374,103.4368,RUMBIA RESORT VILLA Paka Terengganu
518,Bentiu,SS,72.32,overcast clouds,9.2333,29.8333,Mandela hôtel
519,Pimentel,PE,70.09,clear sky,-6.8367,-79.9342,Hotel Puerto del Sol
520,Dhulian,IN,84.6,overcast clouds,24.6833,87.9667,D.M BHABAN
521,Shubarkuduk,KZ,69.84,overcast clouds,49.1447,56.4872,Sirius
523,Mahibadhoo,MV,79.72,overcast clouds,3.7833,72.9667,Omadhoo Inn
524,Dongsheng,CN,68.88,clear sky,39.8161,109.9776,Crowne Plaza Ordos
525,Moundou,TD,71.85,light rain,8.5667,16.0833,Planete Life
527,Barpali,IN,77.14,overcast clouds,21.2,83.5833,GREEN HOUSE LODGE
528,Anna Paulowna,NL,71.04,overcast clouds,52.862,4.834,Boerderij de Waard
529,Presidencia Roque Saenz Pena,AR,80.42,few clouds,-26.7852,-60.4388,Hotel Gualok
530,Matagami,CA,73.51,clear sky,49.7502,-77.6328,Motel Le Caribou
531,Alta Gracia,AR,75.88,few clouds,-31.6529,-64.4283,Hotel Ritz
532,Mahon,ES,81.16,clear sky,39.8885,4.2658,ARTIEM Capri
535,Gizo,SB,81.45,overcast clouds,-8.103,156.8419,Imagination Island
537,Banjar,ID,72.77,clear sky,-8.19,114.9675,The Hamsa Resort
538,Cayenne,GF,84.24,scattered clouds,4.9333,-52.3333,Hôtel Le Dronmi
540,Bac Lieu,VN,79.34,overcast clouds,9.285,105.7244,Khách sạn Sài Gòn Bạc Liêu
545,Gucheng,CN,71.83,clear sky,35.9115,111.3192,古城宾馆
547,San Andres,CO,86.02,broken clouds,12.5847,-81.7006,Hotel Arena Blanca
549,Itoman,JP,84.22,overcast clouds,26.1247,127.6694,Southern Beach Hotel & Resort Okinawa
552,Fukue,JP,80.91,light rain,32.6881,128.8419,Goto Guesthouse Utojuku & SA Car Rental
554,Syracuse,IT,80.19,clear sky,37.0881,15.2792,Hotel Posta
555,Nouadhibou,MR,69.78,scattered clouds,20.931,-17.0347,El Medina
556,Senneterre,CA,72.46,overcast clouds,48.3835,-77.2328,Motel Senabi
558,Muisne,EC,75.2,overcast clouds,0.6,-80.0333,Quinta Samay
561,Ilyich,KZ,78.01,clear sky,40.8464,68.5067,Aul Madeniyet
562,Lepe,ES,83.1,clear sky,37.2548,-7.2043,Hotel La Barca
564,Palora,EC,77.11,overcast clouds,-1.7,-77.9333,Rancho grande
565,Naze,JP,79.72,broken clouds,28.3667,129.4833,Shishime Hotel
567,Waddan,LY,82.02,clear sky,29.1614,16.139,محل الشريف محمد العايب
574,Vilhena,BR,86.22,clear sky,-12.7406,-60.1458,Hotel Mirage
576,Baiao,BR,84.09,broken clouds,-2.7906,-49.6717,Município de Baião
579,Nykoping,SE,67.86,clear sky,58.753,17.0079,Clarion Collection Hotel Kompaniet
580,Bahadurganj,IN,79.14,light rain,26.2667,87.8167,Usmania Cottage
581,Bellevue,US,87.39,clear sky,47.6104,-122.2007,The Westin Bellevue
583,Joaima,BR,73.54,broken clouds,-16.6542,-41.0306,Pousada LAZO
584,Caldas Novas,BR,73.76,few clouds,-17.7417,-48.625,Best Western Suites Le Jardin Caldas Novas
585,Rockford,US,84.29,scattered clouds,42.2711,-89.094,City Plaza Suites
586,High Prairie,CA,73.98,broken clouds,55.4334,-116.4858,Royal Star Motor Inn
587,Bathsheba,BB,86.61,scattered clouds,13.2167,-59.5167,Atlantis Hotel
588,Ichhawar,IN,75.18,moderate rain,23.0167,77.0167,Ram mandira
593,Pacific Grove,US,79.81,scattered clouds,36.6177,-121.9166,Lovers Point Inn
595,Fort Nelson,CA,74.79,few clouds,58.8053,-122.7002,The Fort Nelson Hotel
596,Umm Lajj,SA,88.14,scattered clouds,25.0213,37.2685,Moon light Furnished Units
598,Sapele,NG,73.22,overcast clouds,5.8941,5.6767,Movig Hotel & Suites
599,Vagamo,NO,65.59,light rain,61.8751,9.0967,Vågå hotel
604,Carutapera,BR,77.38,broken clouds,-1.195,-46.02,Lidera
605,Phalaborwa,ZA,67.28,broken clouds,-23.943,31.1411,Bothabelo Bed and Breakfast
606,Upata,VE,74.14,overcast clouds,8.0086,-62.3989,Posada Villa Nela
609,Safaga,EG,88.97,clear sky,26.7292,33.9365,Lamar Resort Abu Soma
610,Phan Thiet,VN,76.23,overcast clouds,10.9333,108.1,Hotel Saigon-PT
611,Lingao,CN,79.93,clear sky,19.9103,109.6859,Lingao Ditai Inn
613,Matara,LK,77.49,overcast clouds,5.9485,80.5353,Amaloh Boutique Resort
614,Koumac,NC,74.95,overcast clouds,-20.5667,164.2833,Le Monitel
615,Sept-Iles,CA,80.06,broken clouds,50.2001,-66.3821,Comfort Inn
617,Seoul,KR,71.2,light rain,37.5683,126.9778,LOTTE HOTEL SEOUL
618,Melito Di Porto Salvo,IT,80.74,clear sky,37.9222,15.7714,B&B Nereidi
622,Idenao,CM,74.44,light rain,4.2475,9.0047,Moland Beach Resort
625,Auburn,US,87.12,clear sky,47.3073,-122.2284,La Quinta Inn & Suites by Wyndham Auburn
626,Inirida,CO,79.72,broken clouds,3.8653,-67.9239,Fuente del Guania Hotel de Lujo
628,Mumford,GH,73.92,clear sky,5.2618,-0.759,Spanish Villa
630,Aguimes,ES,74.03,clear sky,27.9054,-15.4461,Hotel Villa de Aguimes
633,Kilakarai,IN,83.17,broken clouds,9.2333,78.7833,Kilakarai Home Stays
634,Ingham,US,89.78,scattered clouds,42.6,-84.3833,Sunset Mobile Home Park
635,Ambilobe,MG,69.82,few clouds,-13.2,49.05,Hôtel & Restaurant DIANA Ambilobe
637,Bodinayakkanur,IN,75.67,overcast clouds,10.0167,77.35,M.V. Lodge
638,Majene,ID,76.75,few clouds,-3.5403,118.9707,Kost Putri RABBANI
642,Tatawin,TN,80.92,clear sky,32.9297,10.4518,Sangho Privilege Tataouine
644,Nizwa,OM,82.89,light rain,22.9333,57.5333,Orient Apartments
645,Tual,ID,78.6,overcast clouds,-5.6667,132.75,Grand Vilia Hotel
646,Ambulu,ID,71.06,clear sky,-8.345,113.6058,Hotel Ambulu Jember
647,Maragogi,BR,74.48,scattered clouds,-9.0122,-35.2225,Salinas do Maragogi All Inclusive Resort
648,Parrita,CR,77.27,overcast clouds,9.5201,-84.3225,Beso del Viento
649,Korla,CN,67.69,clear sky,41.7597,86.1469,Gulisitan Hotel
654,Rosario Oeste,BR,88.65,broken clouds,-14.8361,-56.4275,Alvorada Palace accomodation
655,Mersing,MY,75.11,few clouds,2.4312,103.8405,Timotel Hotel
661,Carauari,BR,82.6,overcast clouds,-4.8828,-66.8958,Hotel Fellip
